[{"name": "Gelven\u00e5hkoe", "elevation": 1142, "area": "Stekenjokk", "OSM ID": 4977033923, "id": 4977033923, "lat": 65.052834, "lon": 14.413445}, {"name": "Noerhte Sjnjaptja", "elevation": 1130, "area": "Frostviken", "OSM ID": 6516970204}, {"name": "Mellanskogsfj\u00e4llet, Stoere Krovhte", "elevation": 1270, "area": "Frostviken", "OSM ID": 3158183196}, {"name": "Jerikklumpen, V\u00e4kteretjahke", "elevation": 1152, "area": "Frostviken", "OSM ID": 3158220587}, {"name": "Fisk\u00e5fj\u00e4llet, B\u00e5eriesvaerie", "elevation": 1193, "area": "Frostviken", "OSM ID": 26862866}, {"name": "Sielkentjahke", "elevation": 1315, "area": "H\u00e4rbergsdalen", "OSM ID": 26864569}, {"name": "Jarpetjahke", "elevation": 1131, "area": "H\u00e4rbergsdalen", "OSM ID": 6516970260, "id": 6516970260, "lat": 64.6967578, "lon": 14.5183467}, {"name": "Aerhtsege", "elevation": 1129, "area": "H\u00e4rbergsdalen", "OSM ID": 1903048713, "id": 1903048713, "lat": 64.6698137, "lon": 14.6487851}, {"name": "Bastun\u00e4sfj\u00e4llet, \u00c5\u00e5hpetjhtjahke", "elevation": 1163, "area": "H\u00e4rbergsdalen", "OSM ID": 6092989325}, {"name": "Borgah\u00e4llan", "elevation": 1149, "area": "S\u00f6dra Borgafj\u00e4llen", "OSM ID": 26862601, "id": 26862601, "lat": 64.8044829, "lon": 14.9992778}, {"name": "Buarkantjahke", "elevation": 1236, "area": "S\u00f6dra Borgafj\u00e4llen", "OSM ID": 6093007511, "id": 6093007511, "lat": 64.7974962, "lon": 14.9646373}, {"name": "Goengere", "elevation": 1153, "area": "S\u00f6dra Borgafj\u00e4llen", "OSM ID": 6516970206, "id": 6516970206, "lat": 64.8035197, "lon": 14.8964309}, {"name": "Lievkiesoja", "elevation": 1069, "area": "S\u00f6dra Borgafj\u00e4llen", "OSM ID": 6516970209, "id": 6516970209, "lat": 64.8322249, "lon": 14.7633075}, {"name": "Munsfj\u00e4llet, Modtjviellie", "elevation": 1188, "area": "Hotagen", "OSM ID": 26864028}, {"name": "V\u00e4jrakliehpie", "elevation": 1055, "area": "Hotagen", "OSM ID": 5897552835, "id": 5897552835, "lat": 64.2659199, "lon": 14.2676782}, {"name": "Sandknularna, Bieljie", "elevation": 1019, "area": "Hotagen", "OSM ID": 5897552828}, {"name": "Stor-Ersfj\u00e4llet, Evevaerie", "elevation": 919, "area": "Hotagen", "OSM ID": 5034743247}, {"name": "Skalfj\u00e4llet, Skaertie", "elevation": 964, "area": "Hotagen", "OSM ID": 5810244859}, {"name": "Str\u00e5\u00e5hte", "elevation": 1096, "area": "Offerdal", "OSM ID": 5808958903, "id": 5808958903, "lat": 64.0517767, "lon": 13.3851241}, {"name": "Serviesgaejsie i Offerdal", "elevation": 1033, "area": "Offerdal", "OSM ID": 5808958901}, {"name": "Juthatten, Laadtahgiele", "elevation": 1061, "area": "Offerdal", "OSM ID": 6516970827}, {"name": "Bielnie", "elevation": 1243, "area": "Offerdal", "OSM ID": 6516970829, "id": 6516970829, "lat": 64.0338379, "lon": 13.5804105}, {"name": "Mehkene", "elevation": 1266, "area": "Offerdal", "OSM ID": 6516970832, "id": 6516970832, "lat": 63.9906625, "lon": 13.4766626}, {"name": "Mehkene \u00d6sttoppen", "elevation": 1182, "area": "Offerdal", "OSM ID": 12097809017, "id": 12097809017, "lat": 63.9935281, "lon": 13.5316356}, {"name": "Raaragaejsie", "elevation": 1068, "area": "Offerdal", "OSM ID": ""}, {"name": "Namnl\u00f6s Topp pkt. 1169", "elevation": 1169, "area": "Offerdal", "OSM ID": ""}, {"name": "Stoere Tjovre i Offerdalsfj\u00e4llen", "elevation": 1229, "area": "Offerdal", "OSM ID": ""}, {"name": "Jiengetjahke", "elevation": 1214, "area": "Offerdal", "OSM ID": "", "id": 6516970836, "lat": 63.9164734, "lon": 13.5991859}, {"name": "Tjaaksgaejsie", "elevation": 1131, "area": "Offerdal", "OSM ID": "", "id": 3709124360, "lat": 63.8921649, "lon": 13.6075755}, {"name": "D\u00e5eriestjahke", "elevation": 1037, "area": "Offerdal", "OSM ID": "", "id": 11768293895, "lat": 65.6231584, "lon": 14.7574468}, {"name": "D\u00e5eriesvaerie", "elevation": 1040, "area": "Offerdal", "OSM ID": "", "id": 6516970813, "lat": 63.8511482, "lon": 13.6018466}, {"name": "Himmelsraften, Sjkaatre", "elevation": 1213, "area": "Offerdal", "OSM ID": ""}, {"name": "Tjelmieby\u00f6lehke", "elevation": 1029, "area": "Offerdal", "OSM ID": "", "id": 6516970819, "lat": 63.9067352, "lon": 13.7406349}, {"name": "Tjaerhvientjahke", "elevation": 1032, "area": "Offerdal", "OSM ID": "", "id": 6516970817, "lat": 63.8725496, "lon": 13.7304425}, {"name": "Ans\u00e4tten, Akte vaerie", "elevation": 1091, "area": "Hotagen", "OSM ID": ""}, {"name": "Lappluvan, Goeptelssjienie", "elevation": 1058, "area": "Offerdal", "OSM ID": ""}, {"name": "Duvviegaejsie", "elevation": 1005, "area": "Offerdal", "OSM ID": "", "id": 5086904891, "lat": 63.80399, "lon": 13.5648248}, {"name": "Oldklumpen", "elevation": 879, "area": "Offerdal", "OSM ID": "", "id": 2667294816, "lat": 63.7437983, "lon": 13.5124526}, {"name": "Sjuevlie", "elevation": 1135, "area": "S\u00f6sj\u00f6fj\u00e4llen", "OSM ID": "", "id": 6503279751, "lat": 64.0686905, "lon": 13.2456064}, {"name": "Storknulen, J\u00e5vnjuenie", "elevation": 1098, "area": "S\u00f6sj\u00f6fj\u00e4llen", "OSM ID": ""}, {"name": "Sl\u00e4tnatjahke", "elevation": 1142, "area": "S\u00f6sj\u00f6fj\u00e4llen", "OSM ID": "", "id": 6503279753, "lat": 63.9900227, "lon": 13.0647397}, {"name": "Buvriegaejsie \u00d6sttoppen", "elevation": 1078, "area": "S\u00f6sj\u00f6fj\u00e4llen", "OSM ID": ""}, {"name": "Buvriegaejsie V\u00e4sttoppen", "elevation": 1030, "area": "S\u00f6sj\u00f6fj\u00e4llen", "OSM ID": ""}, {"name": "Stoere Tjovre i S\u00f6sj\u00f6fj\u00e4llen", "elevation": 1218, "area": "S\u00f6sj\u00f6fj\u00e4llen", "OSM ID": ""}, {"name": "Stapeln, Ohtje Tjaalnge", "elevation": 932, "area": "S\u00f6sj\u00f6fj\u00e4llen", "OSM ID": ""}, {"name": "Kyrkan, Stoere Tjaalnge", "elevation": 1067, "area": "S\u00f6sj\u00f6fj\u00e4llen", "OSM ID": ""}, {"name": "Riepietjahke", "elevation": 1052, "area": "S\u00f6sj\u00f6fj\u00e4llen", "OSM ID": ""}, {"name": "Serviesgaejsie", "elevation": 1082, "area": "S\u00f6sj\u00f6fj\u00e4llen", "OSM ID": "", "id": 9980744157, "lat": 64.07372, "lon": 13.55894}, {"name": "Giedtiegaejsie", "elevation": 1026, "area": "S\u00f6sj\u00f6fj\u00e4llen", "OSM ID": "", "id": 6503279757, "lat": 63.9078489, "lon": 13.1544542}, {"name": "Gr\u00f6nfj\u00e4llet, Faavrehke", "elevation": 1023, "area": "S\u00f6sj\u00f6fj\u00e4llen", "OSM ID": ""}, {"name": "Mj\u00f6lkvattsfj\u00e4llet, Mealhkantjahke", "elevation": 1247, "area": "S\u00f6sj\u00f6fj\u00e4llen", "OSM ID": ""}, {"name": "Sillerb\u00e4cksklumpen, Skovrebaektie", "elevation": 984, "area": "S\u00f6sj\u00f6fj\u00e4llen", "OSM ID": ""}, {"name": "Plaassagaejsie", "elevation": 974, "area": "S\u00f6sj\u00f6fj\u00e4llen", "OSM ID": "", "id": 6503279750, "lat": 63.8141963, "lon": 13.3125114}, {"name": "Sulj\u00e4tten", "elevation": 845, "area": "Kallbygden", "OSM ID": "", "id": 2335665297, "lat": 63.5866826, "lon": 13.1571692}, {"name": "L\u00e5gsj\u00f6skutan, Skaalnja", "elevation": 1113, "area": "Sk\u00e4ckerfj\u00e4llen", "OSM ID": ""}, {"name": "Sk\u00efeledahke", "elevation": 1190, "area": "Sk\u00e4ckerfj\u00e4llen", "OSM ID": "", "id": 6503279758, "lat": 63.8826396, "lon": 12.6984786}, {"name": "Dueljienaesie", "elevation": 877, "area": "Sk\u00e4ckerfj\u00e4llen", "OSM ID": "", "id": 6503279759, "lat": 63.8616619, "lon": 12.6068973}, {"name": "Buvrietjahke", "elevation": 1048, "area": "Sk\u00e4ckerfj\u00e4llen", "OSM ID": "", "id": 8665412047, "lat": 63.8629022, "lon": 12.7307954}, {"name": "D\u00f6rrsvalen, Gaallanavte", "elevation": 984, "area": "Sk\u00e4ckerfj\u00e4llen", "OSM ID": ""}, {"name": "Sandfj\u00e4llet, Steavhkere", "elevation": 1230, "area": "Sk\u00e4ckerfj\u00e4llen", "OSM ID": ""}, {"name": "Jorpetjahke 1181 vid Sandfj\u00e4llet", "elevation": 1181, "area": "Sk\u00e4ckerfj\u00e4llen", "OSM ID": ""}, {"name": "Skeavratjahke", "elevation": 1193, "area": "Sk\u00e4ckerfj\u00e4llen", "OSM ID": "", "id": 8665412045, "lat": 63.8114617, "lon": 12.665253}, {"name": "Opmedstjahke", "elevation": 1197, "area": "Sk\u00e4ckerfj\u00e4llen", "OSM ID": "", "id": 8665412046, "lat": 63.8094446, "lon": 12.7176097}, {"name": "Sockertoppen, Gihperegaejsie", "elevation": 1210, "area": "Sk\u00e4ckerfj\u00e4llen", "OSM ID": ""}, {"name": "Aahkantjahke", "elevation": 1142, "area": "Sk\u00e4ckerfj\u00e4llen", "OSM ID": ""}, {"name": "Mehkentjahke", "elevation": 1208, "area": "Sk\u00e4ckerfj\u00e4llen", "OSM ID": "", "id": 8665412044, "lat": 63.7705034, "lon": 12.7175453}, {"name": "Jorpetjahke 1203", "elevation": 1202, "area": "Sk\u00e4ckerfj\u00e4llen", "OSM ID": ""}, {"name": "Rovtsentjarra", "elevation": 898, "area": "Sk\u00e4ckerfj\u00e4llen", "OSM ID": ""}, {"name": "Anjeskutan, Stoere Tjohkele", "elevation": 1201, "area": "Sk\u00e4ckerfj\u00e4llen", "OSM ID": ""}, {"name": "Lill-Anjeskutan, Onne Tjohkele", "elevation": 1152, "area": "Sk\u00e4ckerfj\u00e4llen", "OSM ID": ""}, {"name": "V\u00e4sterskutan", "elevation": 1333, "area": "Stor\u00e5ns dalg\u00e5ng", "OSM ID": "", "id": 2406102907, "lat": 63.446978, "lon": 13.072095}, {"name": "\u00c5reskutan", "elevation": 1420, "area": "Stor\u00e5ns dalg\u00e5ng", "OSM ID": "", "id": 26862501, "lat": 63.4313938, "lon": 13.0932779}, {"name": "Mullfj\u00e4llet", "elevation": 1031, "area": "Stor\u00e5ns dalg\u00e5ng", "OSM ID": "", "id": 2335665282, "lat": 63.4225967, "lon": 12.9554973}, {"name": "Renfj\u00e4llet", "elevation": 986, "area": "Stor\u00e5ns dalg\u00e5ng", "OSM ID": "", "id": 1920165500, "lat": 63.3527977, "lon": 13.0521517}, {"name": "Storsnasen, Mijlehkh", "elevation": 1463, "area": "Storulv\u00e5n", "OSM ID": ""}, {"name": "Getvalen", "elevation": 1326, "area": "Storulv\u00e5n", "OSM ID": "", "id": 2335665273, "lat": 63.21436, "lon": 12.2971087}, {"name": "S\u00f6nner-Tv\u00e4r\u00e5klumpen", "elevation": 1412, "area": "Storulv\u00e5n", "OSM ID": ""}, {"name": "Norder-Tv\u00e4r\u00e5klumpen", "elevation": 1257, "area": "Storulv\u00e5n", "OSM ID": ""}, {"name": "Getryggen, Tjiejhtenrudtje", "elevation": 1382, "area": "Storulv\u00e5n", "OSM ID": ""}, {"name": "Bl\u00e5hammarkl\u00e4ppen", "elevation": 1165, "area": "Storulv\u00e5n", "OSM ID": "", "id": 2667287038, "lat": 63.1842847, "lon": 12.1598216}, {"name": "Str\u00e5ten, Str\u00e5atantjahke", "elevation": 1143, "area": "Storulv\u00e5n", "OSM ID": ""}, {"name": "Miektjieburrientjahke", "elevation": 1143, "area": "Storulv\u00e5n", "OSM ID": "", "id": 1707430429, "lat": 63.1668822, "lon": 12.4185721}, {"name": "Laptentjahke", "elevation": 1250, "area": "Storulv\u00e5n", "OSM ID": "", "id": 1379746278, "lat": 63.1418502, "lon": 12.4342979}, {"name": "Stor-Ulv\u00e5fj\u00e4llet, Stuore Viekejalla", "elevation": 1073, "area": "Storulv\u00e5n", "OSM ID": ""}, {"name": "Lill-Ulv\u00e5fj\u00e4llet, Onne Viekejalla", "elevation": 1096, "area": "Storulv\u00e5n", "OSM ID": ""}, {"name": "V\u00e4stra Bunnerst\u00f6ten Huvudtoppen, Voemel\u00e5elkientjahke", "elevation": 1555, "area": "Bunnerfj\u00e4llen", "OSM ID": ""}, {"name": "V\u00e4stra Bunnerst\u00f6ten \u00d6sttoppen, Voemel\u00e5elkientjahke", "elevation": 1547, "area": "Bunnerfj\u00e4llen", "OSM ID": ""}, {"name": "\u00d6stra Bunnerst\u00f6ten, Buantantjahke", "elevation": 1503, "area": "Bunnerfj\u00e4llen", "OSM ID": ""}, {"name": "Stor-Stendalsfj\u00e4llet, Lihtehkendurrientjahke", "elevation": 1419, "area": "Bunnerfj\u00e4llen", "OSM ID": ""}, {"name": "Kyrkstensfj\u00e4llet", "elevation": 1393, "area": "Bunnerfj\u00e4llen", "OSM ID": "", "id": 2667287059, "lat": 63.1682695, "lon": 12.712449}, {"name": "Tjallingklumpen, Tjalnge", "elevation": 1267, "area": "Bunnerfj\u00e4llen", "OSM ID": ""}, {"name": "V\u00e4lliste", "elevation": 1025, "area": "Ottsj\u00f6fj\u00e4llen", "OSM ID": "", "id": 1399967695, "lat": 63.2678078, "lon": 13.1353234}, {"name": "Ottfj\u00e4llet \u00d6stertoppen", "elevation": 1265, "area": "Ottsj\u00f6fj\u00e4llen", "OSM ID": ""}, {"name": "Ottfj\u00e4llet V\u00e4sttoppen", "elevation": 1222, "area": "Ottsj\u00f6fj\u00e4llen", "OSM ID": ""}, {"name": "Rekhuvudet", "elevation": 1063, "area": "Ottsj\u00f6fj\u00e4llen", "OSM ID": "", "id": 2667294818, "lat": 63.2284421, "lon": 12.8469466}, {"name": "Vaktklumpen", "elevation": 1444, "area": "Sylarna", "OSM ID": "", "id": 2335665305, "lat": 63.0424671, "lon": 12.2159624}, {"name": "Lillsylen", "elevation": 1700, "area": "Sylarna", "OSM ID": "", "id": 1905873558, "lat": 63.0293328, "lon": 12.1959498}, {"name": "Storsola", "elevation": 1727, "area": "Sylarna", "OSM ID": "", "id": 7463281011, "lat": 63.0001928, "lon": 12.2121238}, {"name": "Fruntimmersklumpen", "elevation": 1307, "area": "Sylarna", "OSM ID": "", "id": 2335665271, "lat": 63.0487386, "lon": 12.2976383}, {"name": "Herrklumpen", "elevation": 1289, "area": "Sylarna", "OSM ID": "", "id": 1353507296, "lat": 63.0339319, "lon": 12.276375}, {"name": "Sylskalsst\u00f6ten", "elevation": 1519, "area": "Sylarna", "OSM ID": ""}, {"name": "Ekorrhammaren, \u00c5eruvedurrienbaektie", "elevation": 1452, "area": "Sylarna", "OSM ID": ""}, {"name": "G\u00e5sen, G\u00e5asa", "elevation": 1427, "area": "H\u00e4rj\u00e5ngsfj\u00e4llen", "OSM ID": ""}, {"name": "Kleavetje", "elevation": 1274, "area": "H\u00e4rj\u00e5ngsfj\u00e4llen", "OSM ID": "", "id": 2667287055, "lat": 63.0653612, "lon": 12.594705}, {"name": "Lievkies\u00e5ajja", "elevation": 1443, "area": "H\u00e4rj\u00e5ngsfj\u00e4llen", "OSM ID": "", "id": 2667287063, "lat": 63.0586417, "lon": 12.6666148}, {"name": "Vuelie Livkies\u00e5ajja", "elevation": 1338, "area": "H\u00e4rj\u00e5ngsfj\u00e4llen", "OSM ID": ""}, {"name": "Gruvsm\u00e4llen", "elevation": 1247, "area": "H\u00e4rj\u00e5ngsfj\u00e4llen", "OSM ID": "", "id": 2667287047, "lat": 63.0436635, "lon": 12.7370431}, {"name": "Sm\u00e4llh\u00f6garna, Sm\u00e4lle 1288", "elevation": 1288, "area": "H\u00e4rj\u00e5ngsfj\u00e4llen", "OSM ID": ""}, {"name": "Sm\u00e4llh\u00f6garna, Sm\u00e4lle 1158", "elevation": 1158, "area": "H\u00e4rj\u00e5ngsfj\u00e4llen", "OSM ID": ""}, {"name": "Lill-Stensdalsfj\u00e4llet, Vijl\u00e5elkientjahke", "elevation": 1414, "area": "H\u00e4rj\u00e5ngsfj\u00e4llen", "OSM ID": ""}, {"name": "Str\u00e5ahpatjaerhvie", "elevation": 1291, "area": "H\u00e4rj\u00e5ngsfj\u00e4llen", "OSM ID": "", "id": 2667287097, "lat": 63.0425595, "lon": 12.5928275}, {"name": "Stora H\u00e4rj\u00e5ngsst\u00f6ten, Giebnientjahke", "elevation": 1626, "area": "H\u00e4rj\u00e5ngsfj\u00e4llen", "OSM ID": ""}, {"name": "H\u00e4rj\u00e5ngsfj\u00e4llen pkt. 1533", "elevation": 1533, "area": "H\u00e4rj\u00e5ngsfj\u00e4llen", "OSM ID": ""}, {"name": "H\u00e4rj\u00e5ngsfj\u00e4llen pkt. 1446", "elevation": 1446, "area": "H\u00e4rj\u00e5ngsfj\u00e4llen", "OSM ID": ""}, {"name": "H\u00e4rj\u00e5ngs\u00e5sen", "elevation": 1202, "area": "H\u00e4rj\u00e5ngsfj\u00e4llen", "OSM ID": "", "id": 2667287051, "lat": 62.9896322, "lon": 12.5534871}, {"name": "V\u00e5l\u00e5valen, Tjejnie", "elevation": 1067, "area": "Stor\u00e5d\u00f6rrsfj\u00e4llen", "OSM ID": ""}, {"name": "Saalvantjahke", "elevation": 1330, "area": "Stor\u00e5d\u00f6rrsfj\u00e4llen", "OSM ID": "", "id": 12074833984, "lat": 63.014872, "lon": 12.9731798}, {"name": "Namnl\u00f6s Topp pkt. 1293", "elevation": 1293, "area": "Stor\u00e5d\u00f6rrsfj\u00e4llen", "OSM ID": ""}, {"name": "Staajnehke", "elevation": 1504, "area": "Stor\u00e5d\u00f6rrsfj\u00e4llen", "OSM ID": ""}, {"name": "Gruvfj\u00e4llet", "elevation": 1432, "area": "Stor\u00e5d\u00f6rrsfj\u00e4llen", "OSM ID": "", "id": 12074834780, "lat": 62.9815538, "lon": 13.0635166}, {"name": "Gr\u00e5sj\u00f6fj\u00e4llet pkt. 1426", "elevation": 1426, "area": "Stor\u00e5d\u00f6rrsfj\u00e4llen", "OSM ID": ""}, {"name": "Gr\u00e5sj\u00f6fj\u00e4llet, R\u00e5afatjoelentjahke", "elevation": 1460, "area": "Stor\u00e5d\u00f6rrsfj\u00e4llen", "OSM ID": ""}, {"name": "V\u00e5l\u00e5sj\u00f6fj\u00e4llet, Voenjel\u00e5elkientjahke", "elevation": 1455, "area": "Stor\u00e5d\u00f6rrsfj\u00e4llen", "OSM ID": ""}, {"name": "Rensn\u00e4vet", "elevation": 1404, "area": "Stor\u00e5d\u00f6rrsfj\u00e4llen", "OSM ID": "", "id": 6516066683, "lat": 62.9410922, "lon": 12.9023265}, {"name": "Bockhammaren Norra", "elevation": 1453, "area": "Stor\u00e5d\u00f6rrsfj\u00e4llen", "OSM ID": ""}, {"name": "Bockhammaren S\u00f6dra", "elevation": 1443, "area": "Stor\u00e5d\u00f6rrsfj\u00e4llen", "OSM ID": ""}, {"name": "Synder-Stor\u00e5d\u00f6rrfj\u00e4llet", "elevation": 1490, "area": "Stor\u00e5d\u00f6rrsfj\u00e4llen", "OSM ID": "", "id": 6516066682, "lat": 62.9620518, "lon": 12.9753685}, {"name": "N\u00f6rder-Stor\u00e5d\u00f6rrfj\u00e4llet", "elevation": 1526, "area": "Stor\u00e5d\u00f6rrsfj\u00e4llen", "OSM ID": "", "id": 12074834781, "lat": 62.9666165, "lon": 13.0170821}, {"name": "Mossalassfj\u00e4llet, Salpehke", "elevation": 1321, "area": "Stor\u00e5d\u00f6rrsfj\u00e4llen", "OSM ID": ""}, {"name": "Tjaakse", "elevation": 1415, "area": "Stor\u00e5d\u00f6rrsfj\u00e4llen", "OSM ID": ""}, {"name": "Hott\u00f6gsfj\u00e4llet, Hijhtege", "elevation": 1106, "area": "Anaris", "OSM ID": ""}, {"name": "Stor-Anah\u00f6gen, Sl\u00e4tna", "elevation": 1423, "area": "Anaris", "OSM ID": ""}, {"name": "Stor-Gr\u00f6ngumpen, Suenjere", "elevation": 1213, "area": "Anaris", "OSM ID": ""}, {"name": "Saanta", "elevation": 1230, "area": "Anaris", "OSM ID": "", "id": 605005053, "lat": 63.0460739, "lon": 13.0950808}, {"name": "Tj\u00e5ervientjahke v\u00e4stra", "elevation": 1391, "area": "Anaris", "OSM ID": "", "id": 2667261721, "lat": 63.0394474, "lon": 13.1779859}, {"name": "Tj\u00e5ervientjahke \u00f6stra", "elevation": 1374, "area": "Anaris", "OSM ID": "", "id": 2667261725, "lat": 63.0381186, "lon": 13.158892}, {"name": "Aaresketjahke", "elevation": 1337, "area": "Anaris", "OSM ID": "", "id": 2667261690, "lat": 63.0591708, "lon": 13.1985713}, {"name": "Tjearmehketjoele", "elevation": 1275, "area": "Anaris", "OSM ID": ""}, {"name": "Gaagka", "elevation": 1266, "area": "Anaris", "OSM ID": "", "id": 6516970278, "lat": 64.5687197, "lon": 14.6506976}, {"name": "D\u00f6rrsj\u00f6fj\u00e4llet, Hurreketjakke", "elevation": 1220, "area": "Anaris", "OSM ID": ""}, {"name": "Namnl\u00f6s Topp pkt. 1249", "elevation": 1249, "area": "Anaris", "OSM ID": ""}, {"name": "Giedtietjahke", "elevation": 1272, "area": "Anaris", "OSM ID": "", "id": 6516970835, "lat": 63.9356566, "lon": 13.616395}, {"name": "D\u00f6rrpiken, Sjtiedtje", "elevation": 1303, "area": "Anaris", "OSM ID": ""}, {"name": "V\u00e4sterfj\u00e4llet, Saarvielie", "elevation": 1158, "area": "Oviksfj\u00e4llen", "OSM ID": ""}, {"name": "Drommen", "elevation": 1140, "area": "Oviksfj\u00e4llen", "OSM ID": "", "id": 851346741, "lat": 63.0843028, "lon": 13.816865}, {"name": "Falkf\u00e5ngarfj\u00e4llet, Holtoke", "elevation": 1188, "area": "Oviksfj\u00e4llen", "OSM ID": ""}, {"name": "\u00d6sterfj\u00e4llet, Bantetjahke", "elevation": 1211, "area": "Oviksfj\u00e4llen", "OSM ID": ""}, {"name": "Storfj\u00e4llet, Flinhtegietjie", "elevation": 1260, "area": "Oviksfj\u00e4llen", "OSM ID": ""}, {"name": "Hundsh\u00f6gen, Vinhtse\u00e5elkie", "elevation": 1372, "area": "Oviksfj\u00e4llen", "OSM ID": ""}, {"name": "Soenehketj\u00e4rra", "elevation": 1162, "area": "Helags", "OSM ID": "", "id": 2667287086, "lat": 62.9634549, "lon": 12.5076311}, {"name": "Snusest\u00f6ten", "elevation": 1197, "area": "Helags", "OSM ID": "", "id": 2667287082, "lat": 62.9404259, "lon": 12.5229127}, {"name": "Norra Helagsst\u00f6ten", "elevation": 1704, "area": "Helags", "OSM ID": "", "id": 2667287066, "lat": 62.9215556, "lon": 12.4052833}, {"name": "Skantztjahke", "elevation": 1634, "area": "Helags", "OSM ID": ""}, {"name": "Helagsfj\u00e4llet, Maaj\u00e5elkie", "elevation": 1797, "area": "Helags", "OSM ID": ""}, {"name": "Predikstolen, Beallehkse", "elevation": 1681, "area": "Helags", "OSM ID": ""}, {"name": "Bullfj\u00e4llet, N\u00e5evpie", "elevation": 1410, "area": "Skarsfj\u00e4llen", "OSM ID": ""}, {"name": "Skilhtj\u00e5elkie pkt. 1475", "elevation": 1475, "area": "Skarsfj\u00e4llen", "OSM ID": ""}, {"name": "Skilhtj\u00e5elkie", "elevation": 1488, "area": "Skarsfj\u00e4llen", "OSM ID": "", "id": 2667292891, "lat": 62.8055222, "lon": 12.2033753}, {"name": "Skarsfj\u00e4llet, R\u00e5\u00e5sengealta", "elevation": 1594, "area": "Skarsfj\u00e4llen", "OSM ID": ""}, {"name": "Skarsfj\u00e4llet pkt. 1448", "elevation": 1484, "area": "Skarsfj\u00e4llen", "OSM ID": ""}, {"name": "Haftorsst\u00f6ten, Gihpergaejsie", "elevation": 1150, "area": "Skarsfj\u00e4llen", "OSM ID": ""}, {"name": "Stor-Axh\u00f6gen, Heavk\u00e5elkie", "elevation": 1321, "area": "Mitt\u00e5dalen", "OSM ID": ""}, {"name": "Stor-Mitt\u00e5kl\u00e4ppen, Kliehpie", "elevation": 1212, "area": "Mitt\u00e5dalen", "OSM ID": ""}, {"name": "\u00c5nnfj\u00e4llet / An\u00e5fj\u00e4llet", "elevation": 1300, "area": "Mitt\u00e5dalen", "OSM ID": ""}, {"name": "Bl\u00e5st\u00f6ten / An\u00e5fj\u00e4llet", "elevation": 1330, "area": "Mitt\u00e5dalen", "OSM ID": ""}, {"name": "S\u00e4rvfj\u00e4llet", "elevation": 1170, "area": "S\u00e4rvfj\u00e4llen", "OSM ID": "", "id": 2667292895, "lat": 62.6311004, "lon": 13.3372134}, {"name": "Sken\u00f6rsfj\u00e4llet, Sk\u00e5avmantjahke", "elevation": 1174, "area": "T\u00e4nn\u00e5dalen", "OSM ID": ""}, {"name": "Stor-Skarven", "elevation": 1260, "area": "T\u00e4nn\u00e5dalen", "OSM ID": "", "id": 2667292892, "lat": 62.5954149, "lon": 12.3587905}, {"name": "Lill-Skarven", "elevation": 1226, "area": "T\u00e4nn\u00e5dalen", "OSM ID": "", "id": 2667292888, "lat": 62.5771777, "lon": 12.3638249}, {"name": "R\u00f6dfj\u00e4llet, R\u00e5\u00e5fjeelle", "elevation": 1243, "area": "T\u00e4nn\u00e5dalen", "OSM ID": ""}, {"name": "Brattriet", "elevation": 1276, "area": "T\u00e4nn\u00e5dalen", "OSM ID": "", "id": 2275671166, "lat": 62.4261525, "lon": 12.3771458}, {"name": "Fiskb\u00e4ckv\u00e5len", "elevation": 1097, "area": "T\u00e4nn\u00e5dalen", "OSM ID": "", "id": 2667292887, "lat": 62.435773, "lon": 12.4287552}, {"name": "Storv\u00e5len, V\u00e5ala", "elevation": 1123, "area": "T\u00e4nn\u00e5dalen", "OSM ID": ""}, {"name": "H\u00f6gfj\u00e4llet / S\u00e5nfj\u00e4llet", "elevation": 1277, "area": "S\u00e5nfj\u00e4llen", "OSM ID": ""}, {"name": "Skedbrofj\u00e4llet, Sjkeabpore", "elevation": 1148, "area": "Rogen", "OSM ID": ""}, {"name": "Hov\u00e4rken", "elevation": 1125, "area": "Lofsdalen", "OSM ID": "", "id": 639251629, "lat": 62.1294529, "lon": 13.3190116}, {"name": "Svanh\u00e5gna", "elevation": 1178, "area": "Lofsdalen", "OSM ID": "", "id": 2667292894, "lat": 62.0568902, "lon": 13.251529}, {"name": "S\u00f6mlingsh\u00e5gna", "elevation": 1196, "area": "Lofsdalen", "OSM ID": "", "id": 541197512, "lat": 62.0407758, "lon": 13.2194328}]